City_ID,City,Lat,Lng,Max Temp,Humidity,Cloudiness,Wind Speed,Country,Date
0,jamestown,42.097,-79.2353,15.95,98,75,6.69,US,1712883639
1,ancud,-41.8697,-73.8203,8.92,73,0,2.4,CL,1712883617
2,edinburgh of the seven seas,-37.0676,-12.3116,18.61,92,9,7.68,SH,1712883878
3,albany,42.6001,-73.9662,15.33,80,100,1.34,US,1712883645
4,rongelap,11.1635,166.8941,26.79,77,100,8.8,MH,1712883878
5,hamilton,39.1834,-84.5333,12.35,89,100,10.29,US,1712883879
6,wailua homesteads,22.0669,-159.378,23.75,86,100,3.04,US,1712883778
7,tralee,52.2704,-9.7026,11.37,98,100,2.34,IE,1712883879
8,atafu village,-8.5421,-172.5159,29.81,74,98,4.16,TK,1712883880
9,yunfu,22.9306,112.0373,26.26,77,53,1.01,CN,1712883851
10,portland,45.5234,-122.6762,16.01,59,100,4.12,US,1712883696
11,waitangi,-43.9535,-176.5597,18.23,91,100,6.26,NZ,1712883781
12,kisanga,-7.4362,37.7034,23.79,95,49,0.79,TZ,1712883881
13,bodo,67.28,14.405,4.02,64,75,4.63,NO,1712883881
14,galliano,29.4422,-90.2992,20.0,67,0,1.54,US,1712883882
15,newman,37.3138,-121.0208,29.6,50,1,1.34,US,1712883882
16,bredasdorp,-34.5322,20.0403,12.86,76,20,3.28,ZA,1712883882
17,patnanungan,14.7833,122.1833,27.72,72,100,4.71,PH,1712883882
18,grytviken,-54.2811,-36.5092,-2.02,67,2,4.63,GS,1712883784
19,poltavka,54.3663,71.7632,-1.2,87,78,2.69,RU,1712883883
20,port-aux-francais,-49.35,70.2167,5.8,85,100,3.44,TF,1712883787
21,enewetak,11.3474,162.3373,26.83,79,79,8.81,MH,1712883883
22,college,64.8569,-147.8028,6.71,52,100,1.79,US,1712883837
23,belmonte,-15.8631,-38.8828,25.89,84,12,2.27,BR,1712883763
24,flying fish cove,-10.4217,105.6791,27.82,83,75,4.63,CX,1712883812
25,punta arenas,-53.15,-70.9167,8.06,71,40,18.01,CL,1712883613
26,talnakh,69.4865,88.3972,-26.36,97,93,3.95,RU,1712883825
27,alamo,20.9167,-97.6833,26.8,61,17,4.13,MX,1712883885
28,port lincoln,-34.7333,135.8667,15.75,57,40,2.78,AU,1712883885
29,st. john's,47.5649,-52.7093,2.21,81,0,6.69,CA,1712883660
30,dudinka,69.4058,86.1778,-29.62,99,52,3.58,RU,1712883886
31,abu al matamir,30.9102,30.1744,15.27,89,0,0.41,EG,1712883886
32,yuzhno-kurilsk,44.0306,145.8556,4.65,76,100,4.51,RU,1712883887
33,iqaluit,63.7506,-68.5145,-4.15,79,75,3.09,CA,1712883613
34,hermanus,-34.4187,19.2345,12.67,76,89,6.7,ZA,1712883887
35,lorengau,-2.0226,147.2712,27.83,79,100,1.78,PG,1712883888
36,flin flon,54.7682,-101.865,2.02,71,100,2.49,CA,1712883870
37,bethel,41.3712,-73.414,16.05,89,100,4.02,US,1712883888
38,harper,4.375,-7.7169,26.16,88,100,1.33,LR,1712883888
39,fort bragg,35.139,-79.006,21.78,92,100,5.66,US,1712883610
40,port mathurin,-19.6833,63.4167,24.05,88,75,1.03,MU,1712883670
41,tiksi,71.6872,128.8694,-23.46,90,11,7.22,RU,1712883890
42,isafjordur,66.0755,-23.124,-3.21,94,100,12.37,IS,1712883890
43,fale old settlement,-9.3852,-171.2468,29.99,72,13,3.96,TK,1712883890
44,qaqortoq,60.7167,-46.0333,-7.68,89,14,2.17,GL,1712883821
45,petropavlovsk-kamchatsky,53.0452,158.6483,6.33,29,0,1.0,RU,1712883891
46,adamstown,-25.066,-130.1015,21.64,54,10,5.45,PN,1712883777
47,bilibino,68.0546,166.4372,-9.15,75,56,2.0,RU,1712883852
48,port elizabeth,-33.918,25.5701,14.62,79,0,4.63,ZA,1712883666
49,walvis bay,-22.9575,14.5053,14.53,94,30,2.06,NA,1712883892
50,hanceville,34.0607,-86.7675,13.06,96,63,3.62,US,1712883796
51,twon-brass,4.3151,6.2418,28.43,80,100,5.95,NG,1712883892
52,bergamo,45.698,9.669,15.55,81,0,1.03,IT,1712883850
53,happy valley-goose bay,53.3168,-60.3315,10.17,34,75,7.2,CA,1712883611
54,gao,16.6362,1.637,29.75,9,97,2.83,ML,1712883620
55,georgetown,5.4112,100.3354,28.96,74,20,1.54,MY,1712883746
56,kodiak,57.79,-152.4072,2.73,87,100,3.6,US,1712883894
57,stanley,54.868,-1.6985,13.21,86,75,5.14,GB,1712883894
58,sao vicente,-23.9631,-46.3919,25.71,59,100,0.45,BR,1712883894
59,east end,34.5507,-92.341,17.14,52,0,5.48,US,1712883894
60,puerto natales,-51.7236,-72.4875,2.75,91,24,2.22,CL,1712883895
61,san andres,12.5847,-81.7006,29.01,74,20,4.63,CO,1712883895
62,sambava,-14.2667,50.1667,24.79,93,45,1.79,MG,1712883896
63,sturgeon bay,44.8342,-87.377,9.2,81,100,2.57,US,1712883896
64,pulandian,39.3953,121.9669,17.25,46,0,3.43,CN,1712883896
65,klyuchi,52.2667,79.1667,-2.77,73,4,2.65,RU,1712883896
66,bel ombre,-4.6167,55.4167,28.91,70,20,4.63,SC,1712883897
67,ushuaia,-54.8,-68.3,7.81,71,0,12.86,AR,1712883897
68,conde,-7.2597,-34.9075,26.7,89,20,1.54,BR,1712883897
69,cerea,45.1921,11.2103,13.89,88,7,2.82,IT,1712883898
70,axim,4.8699,-2.2405,26.57,83,96,1.05,GH,1712883898
71,puerto ayora,-0.7393,-90.3518,25.86,97,98,2.24,EC,1712883809
72,polovinnoye,54.7914,65.9864,3.92,79,100,8.43,RU,1712883898
73,san patricio,28.017,-97.5169,24.95,36,3,4.02,US,1712883824
74,longyearbyen,78.2186,15.6401,-15.09,66,0,1.03,SJ,1712883899
75,nebbi,2.4783,31.0889,20.95,84,39,2.18,UG,1712883899
76,sitka,57.0531,-135.33,5.88,70,29,2.54,US,1712883812
77,palikir - national government center,6.9248,158.1611,25.72,84,100,6.62,FM,1712883824
78,okhotsk,59.3833,143.3,-1.98,92,60,1.05,RU,1712883900
79,valle de la pascua,9.2155,-66.0073,27.93,54,7,4.49,VE,1712883900
80,yellowknife,62.456,-114.3525,3.29,60,20,4.63,CA,1712883620
81,anadyr,64.75,177.4833,-10.72,78,0,9.0,RU,1712883897
82,chernyshevskiy,63.0128,112.4714,-19.06,86,39,1.61,RU,1712883902
83,kaiapoi,-43.3783,172.6401,13.04,85,75,8.75,NZ,1712883903
84,lakatoro,-16.0999,167.4164,29.94,70,20,2.81,VU,1712883903
85,nikolayevsk-on-amure,53.1406,140.73,7.34,64,9,1.34,RU,1712883904
86,hobyo,5.3505,48.5268,28.46,77,37,3.52,SO,1712883642
87,necochea,-38.5473,-58.7368,10.21,70,100,2.94,AR,1712883672
88,san-pedro,4.7485,-6.6363,25.6,88,100,2.18,CI,1712883905
89,tura,25.5198,90.2201,26.85,37,0,1.1,IN,1712883905
90,tolanaro,-25.0319,46.9987,23.04,83,40,3.09,MG,1712883801
91,ilulissat,69.2167,-51.1,-6.99,93,100,0.0,GL,1712883906
92,silifke,36.3778,33.9344,17.13,78,7,2.12,TR,1712883906
93,touros,-5.1989,-35.4608,26.43,87,99,3.02,BR,1712883906
94,arteche,12.2645,125.4048,28.43,75,27,3.5,PH,1712883907
95,brisas de zicatela,15.8369,-97.0419,27.29,94,0,3.09,MX,1712883907
96,vorkuta,67.5,64.0,-9.38,87,100,12.07,RU,1712883907
97,ust-nera,64.5667,143.2,-4.15,86,63,2.69,RU,1712883908
98,papatowai,-46.5619,169.4708,8.74,71,100,2.13,NZ,1712883839
99,hithadhoo,-0.6,73.0833,28.61,73,87,1.86,MV,1712883908
100,ta`u,-14.2336,-169.5144,28.73,79,14,4.48,AS,1712883909
101,codrington,-38.2667,141.9667,16.13,53,99,3.46,AU,1712883909
102,carutapera,-1.195,-46.02,25.27,96,100,1.96,BR,1712883826
103,thompson,55.7435,-97.8558,1.09,75,100,3.09,CA,1712883796
104,agat village,13.3886,144.6585,31.52,75,40,6.17,GU,1712883910
105,alofi,-19.0595,-169.9187,28.94,79,75,3.09,NU,1712883910
106,el granada,37.5027,-122.4694,26.07,71,0,10.29,US,1712883910
107,saint-joseph,-21.3667,55.6167,25.21,85,61,0.35,RE,1712883911
108,dostpur,26.2833,82.4667,26.4,40,7,2.5,IN,1712883911
109,alice springs,-23.7,133.8833,21.23,31,5,4.63,AU,1712883911
110,crane,31.3974,-102.3501,23.89,17,0,5.39,US,1712883912
111,cole harbour,44.6724,-63.4751,3.99,83,100,2.68,CA,1712883689
112,gizo,-8.103,156.8419,28.87,76,96,2.68,SB,1712883912
113,korsakov,46.6328,142.7813,7.13,87,89,5.79,RU,1712883913
114,genhe,50.7833,121.5167,7.99,82,58,1.48,CN,1712883913
115,boyolangu,-8.1181,111.8935,26.78,86,72,1.07,ID,1712883913
116,waddan,29.1614,16.139,18.04,24,100,8.12,LY,1712883913
117,nili,33.7218,66.1302,6.73,92,100,3.13,AF,1712883914
118,new norfolk,-42.7826,147.0587,16.72,82,100,1.19,AU,1712883914
119,udachny,66.4167,112.4,-19.2,89,68,4.08,RU,1712883914
120,laayoune,27.1622,-13.2032,25.19,29,0,7.2,EH,1712883795
121,nadi,-17.8,177.4167,31.0,70,20,5.14,FJ,1712883857
122,blackmans bay,-43.0167,147.3167,16.07,70,98,3.46,AU,1712883915
123,afaahiti,-17.75,-149.2833,29.48,86,100,8.12,PF,1712883915
124,bamboo flat,11.7,92.7167,30.05,84,20,1.03,IN,1712883916
125,utrik,11.2278,169.8474,26.57,73,100,8.9,MH,1712883916
126,coyhaique,-45.5752,-72.0662,5.34,81,0,0.0,CL,1712883916
127,mastic beach,40.7668,-72.8521,15.43,97,100,6.69,US,1712883916
128,lincoln city,44.9582,-124.0179,11.74,90,100,2.68,US,1712883731
129,copala,16.65,-98.9833,25.62,74,1,1.7,MX,1712883917
130,olonkinbyen,70.9221,-8.7187,-7.91,90,100,6.78,SJ,1712883917
131,kenai,60.5544,-151.2583,4.05,93,100,1.54,US,1712883918
132,sterling,39.0062,-77.4286,19.19,85,100,7.2,US,1712883698
133,mombetsu,44.3525,143.3525,11.01,58,75,1.03,JP,1712883918
134,nar'yan-mar,67.6713,53.087,1.73,100,100,7.6,RU,1712883919
135,rio pardo,-29.9897,-52.3781,18.58,84,100,5.06,BR,1712883919
136,inhambane,-23.865,35.3833,21.11,75,97,5.54,MZ,1712883919
137,porto novo,6.4965,2.6036,29.9,80,100,4.77,BJ,1712883909
138,vadso,70.0744,29.7487,1.09,75,100,7.2,NO,1712883797
139,remire-montjoly,4.9167,-52.2667,26.02,94,75,1.03,GF,1712883920
140,batala,31.8186,75.2028,17.88,32,32,2.04,IN,1712883920
141,i-n-salah,27.1935,2.4607,20.06,29,0,5.45,DZ,1712883898
142,badger,64.8,-147.5333,7.14,46,75,6.17,US,1712883921
143,port alfred,-33.5906,26.891,13.43,84,100,2.24,ZA,1712883921
144,mafinga,-7.25,35.0667,19.79,96,95,0.77,TZ,1712883922
145,lerwick,60.1545,-1.1494,9.0,85,100,9.47,GB,1712883922
146,dahab,28.501,34.5134,22.47,47,100,5.67,EG,1712883662
147,allende,25.2833,-100.0167,22.6,22,44,2.94,MX,1712883922
148,itoman,26.1247,127.6694,24.21,73,20,3.6,JP,1712883923
149,hawaiian paradise park,19.5933,-154.9731,22.8,96,100,3.09,US,1712883923
150,egilsstadir,65.2653,-14.3948,-0.05,100,100,3.6,IS,1712883798
151,aasiaat,68.7098,-52.8699,-7.9,96,100,2.5,GL,1712883798
152,askoy,60.4092,5.226,8.16,100,75,5.14,NO,1712883924
153,tefe,-3.3542,-64.7114,24.87,97,100,0.87,BR,1712883924
154,constantia,44.1833,28.65,16.5,65,45,2.85,RO,1712883864
155,motueka,-41.1333,173.0167,19.5,96,59,4.77,NZ,1712883925
156,kapa'a,22.0752,-159.319,24.5,86,100,3.66,US,1712883667
157,toliara,-23.35,43.6667,23.15,80,99,5.01,MG,1712883925
158,chibougamau,49.9168,-74.3659,5.79,87,100,3.09,CA,1712883743
159,khromtau,50.2503,58.4347,5.44,78,100,4.45,KZ,1712883926
160,betio village,1.358,172.9211,31.02,75,89,3.0,KI,1712883926
161,khandud,36.9513,72.318,-4.99,85,45,1.62,AF,1712883926
162,bam,29.106,58.357,21.33,40,0,3.95,IR,1712883927
163,slave lake,55.2834,-114.769,13.99,21,0,8.23,CA,1712883696
164,island harbour,50.724,-1.2758,11.23,90,100,1.34,GB,1712883927
165,arno,60.1167,18.6333,6.55,82,1,6.57,SE,1712883928
166,vinukonda,16.05,79.75,25.88,82,38,1.57,IN,1712883928
167,devgadh bariya,22.7,73.9,25.77,51,39,3.27,IN,1712883929
168,chilca,-12.5211,-76.7372,21.01,89,11,3.81,PE,1712883929
169,nantucket,41.2835,-70.0995,10.08,99,100,8.75,US,1712883927
170,alesund,62.4723,6.1549,10.51,66,58,5.66,NO,1712883929
171,cold lake,54.4502,-110.2017,12.97,22,75,3.6,CA,1712883930
172,dong ha,16.8163,107.1003,27.22,72,100,1.64,VN,1712883930
173,belyy yar,53.6039,91.3903,-1.06,86,40,5.0,RU,1712883930
174,the pas,53.8251,-101.2541,5.01,75,100,2.06,CA,1712883796
175,tazovsky,67.4667,78.7,-19.83,89,100,8.27,RU,1712883931
176,balkanabat,39.5108,54.3671,13.88,84,66,1.86,TM,1712883931
177,sungai penuh,-2.0833,101.3833,21.67,88,99,0.36,ID,1712883932
178,whitehorse,60.7161,-135.0538,8.43,27,75,8.23,CA,1712883703
179,la'ie,21.6477,-157.9253,26.7,83,100,4.02,US,1712883932
180,west island,-12.1568,96.8225,27.99,78,40,3.09,CC,1712883933
181,kone,-21.0595,164.8658,24.13,79,100,0.64,NC,1712883933
182,invercargill,-46.4,168.35,9.45,82,100,2.68,NZ,1712883933
183,haiku-pauwela,20.9219,-156.3051,25.7,71,20,5.66,US,1712883934
184,tapa,59.2606,25.9586,8.62,88,95,6.27,EE,1712883934
185,gadzhiyevo,69.2551,33.3362,-0.78,86,100,10.82,RU,1712883655
186,kloulklubed,7.0419,134.2556,30.28,75,100,4.91,PW,1712883934
187,iskateley,67.6803,53.1512,1.68,100,100,7.6,RU,1712883935
188,mujiayingzi,42.1167,118.7833,19.0,39,8,8.23,CN,1712883835
189,tsiombe,-25.3,45.4833,20.02,87,100,3.04,MG,1712883936
190,turpan,42.9333,89.1667,20.15,24,8,1.04,CN,1712883936
191,gunjur,13.2019,-16.7339,22.04,83,0,4.12,GM,1712883936
192,filadelfia,39.9523,-75.1638,19.44,92,100,5.14,US,1712883768
193,lautoka,-17.6167,177.4667,30.92,70,20,5.14,FJ,1712883675
194,avarua,-21.2078,-159.775,29.03,84,75,8.23,CK,1712883937
195,vorgashor,67.5833,63.95,-9.55,87,100,8.02,RU,1712883937
196,fortuna,40.5982,-124.1573,13.7,79,100,4.63,US,1712883938
197,tavda,58.0425,65.2726,2.05,72,100,2.24,RU,1712883938
198,koutiala,12.3917,-5.4642,32.76,32,100,0.99,ML,1712883938
199,namanga,-2.5433,36.7905,19.08,93,90,1.47,KE,1712883939
200,rabo de peixe,37.8,-25.5833,17.77,99,20,0.51,PT,1712883939
201,la passe,45.5549,-0.8967,12.13,93,11,3.15,FR,1712883812
202,lubuklinggau,-3.3,102.8667,24.84,90,100,0.72,ID,1712883654
203,nuuk,64.1835,-51.7216,-2.66,86,40,3.09,GL,1712883930
204,yanam,16.7333,82.2167,26.33,74,16,1.1,IN,1712883940
205,metlili chaamba,32.2667,3.6333,13.52,54,0,4.12,DZ,1712883941
206,mount gambier,-37.8333,140.7667,14.94,56,100,2.29,AU,1712883941
207,lobito,-12.3481,13.5456,25.38,90,100,3.01,AO,1712883941
208,saudarkrokur,65.7461,-19.6394,0.22,97,100,2.17,IS,1712883877
209,balikpapan,-1.2675,116.8289,25.55,83,40,3.09,ID,1712883736
210,fort st. john,56.2499,-120.8529,9.94,40,100,4.12,CA,1712883708
211,nyakahanga,-1.6033,31.1414,14.87,94,89,0.99,TZ,1712883942
212,savanna-la-mar,18.219,-78.1332,27.97,88,100,1.56,JM,1712883942
213,cabo san lucas,22.8909,-109.9124,25.17,52,75,3.09,MX,1712883943
214,canutama,-6.5339,-64.3831,23.65,99,99,0.28,BR,1712883801
215,cockburn town,21.4612,-71.1419,25.36,83,9,9.38,TC,1712883935
216,saint-pierre,-21.3393,55.4781,25.82,69,0,2.57,RE,1712883944
217,geraldton,-28.7667,114.6,23.23,56,6,5.66,AU,1712883944
218,beledweyne,4.7358,45.2036,28.59,56,100,4.32,SO,1712883944
219,fortaleza,-3.7227,-38.5247,29.48,91,20,1.03,BR,1712883738
220,kati,12.7441,-8.0726,28.67,34,100,0.23,ML,1712883945
221,ar ruways,24.1103,52.7306,23.9,77,28,4.3,AE,1712883857
222,kuusamo,65.9667,29.1833,0.02,80,0,4.63,FI,1712883946
223,santiago de chuco,-8.15,-78.1833,13.05,86,85,0.62,PE,1712883946
224,barrouallie,13.2333,-61.2667,26.79,78,40,5.14,VC,1712883947
225,chemolgan,43.1897,76.5292,6.81,85,100,3.25,KZ,1712883947
226,lihue,21.9789,-159.3672,24.09,80,75,4.12,US,1712883947
227,kencong,-8.2833,113.3667,27.13,82,47,0.84,ID,1712883948
228,akureyri,65.6835,-18.0878,1.96,75,100,4.63,IS,1712883663
229,kenora,49.8167,-94.4337,7.54,76,75,2.06,CA,1712883728
230,muriti,-1.9833,32.9167,22.63,78,38,5.17,TZ,1712883948
231,guasdualito,7.2424,-70.7324,32.98,43,0,1.03,VE,1712883949
232,xilin hot,43.9667,116.0333,14.17,33,100,4.94,CN,1712883949
233,lata,40.1629,-8.3327,16.62,81,100,1.77,PT,1712883949
234,polyarnyy,69.1989,33.4478,-0.91,88,100,10.61,RU,1712883950
235,tucuma,-0.1833,-50.05,25.9,91,100,2.42,BR,1712883950
236,vilyuchinsk,52.9306,158.4028,7.15,92,18,2.52,RU,1712883837
237,faya-largeau,17.9257,19.1043,26.53,11,34,8.65,TD,1712883950
238,alpena,45.0617,-83.4327,7.18,99,100,9.26,US,1712883804
239,mbinga,-10.9333,35.0167,17.74,99,100,0.93,TZ,1712883951
240,radaur,30.0333,77.15,22.44,25,24,2.86,IN,1712883951
241,sinop,41.7711,34.8709,9.27,93,96,1.21,TR,1712883951
242,rouissat,31.9243,5.3502,14.04,62,40,5.66,DZ,1712883901
243,dhromolaxia,34.8755,33.5868,17.63,89,75,2.06,CY,1712883952
244,murzuq,25.9155,13.9184,21.86,15,8,7.41,LY,1712883798
245,duong dong,10.2167,103.9667,29.0,74,40,4.63,VN,1712883952
246,saipan,15.1355,145.701,31.39,62,40,7.72,MP,1712883953
247,aoulef,26.9667,1.0833,21.75,25,0,6.03,DZ,1712883953
248,popondetta,-8.7537,148.2534,29.8,71,58,0.33,PG,1712883953
249,kalmunai,7.4167,81.8167,26.97,84,100,1.6,LK,1712883954
250,sinabang,2.4803,96.3801,27.69,81,98,1.44,ID,1712883954
251,vuktyl,63.8567,57.3094,0.62,96,100,7.6,RU,1712883954
252,zelenogorskiy,55.0333,87.0,-3.97,79,100,4.17,RU,1712883955
253,quang ngai,15.1167,108.8,28.95,62,100,2.17,VN,1712883955
254,pisco,-13.7,-76.2167,22.03,83,0,7.72,PE,1712883955
255,northam,51.0333,-4.2167,9.78,94,100,6.86,GB,1712883956
256,uturoa,-16.7333,-151.4333,28.57,80,23,7.91,PF,1712883874
257,villa regina,-39.1,-67.0667,13.32,33,100,0.89,AR,1712883956
258,tromso,69.6496,18.957,1.01,93,75,1.54,NO,1712883956
259,mana,5.6592,-53.7767,25.62,91,100,3.75,GF,1712883957
260,lebu,-37.6167,-73.65,10.59,92,1,1.68,CL,1712883810
261,prabumulih,-3.45,104.25,25.41,94,95,1.1,ID,1712883957
262,port pirie,-33.1833,138.0167,18.21,53,97,1.99,AU,1712883958
263,barra do bugres,-15.0725,-57.1811,23.96,88,100,1.48,BR,1712883738
264,luderitz,-26.6481,15.1594,21.69,44,0,2.42,NA,1712883958
265,puerto ayacucho,5.6639,-67.6236,29.47,59,57,1.33,VE,1712883958
266,cooma,-36.2333,149.1333,16.57,42,0,1.8,AU,1712883959
267,knysna,-34.0363,23.0471,12.51,76,1,1.96,ZA,1712883959
268,divnogorsk,55.9594,92.3619,-4.73,83,100,2.73,RU,1712883959
269,pitimbu,-7.4706,-34.8086,27.33,80,79,3.43,BR,1712883959
270,puerto baquerizo moreno,-0.9,-89.6,25.53,86,69,3.72,EC,1712883960
271,zhosaly,45.4878,64.0781,6.96,54,1,8.24,KZ,1712883960
272,boende,-0.2167,20.8667,22.8,97,99,0.97,CD,1712883949
273,guerrero negro,27.9769,-114.0611,19.19,62,100,6.16,MX,1712883961
274,jayapura,-2.5333,140.7,31.66,77,95,1.41,ID,1712883961
275,keflavik,64.0049,-22.5624,3.95,93,75,6.17,IS,1712883673
276,the bottom,17.6259,-63.2492,25.07,81,100,12.12,BQ,1712883962
277,dolzhanskaya,46.6311,37.8039,14.44,63,51,2.12,RU,1712883962
278,mitchell,43.7094,-98.0298,10.99,32,20,5.66,US,1712883962
279,sungho 1-tong,38.9914,125.9778,17.26,45,0,2.74,KP,1712883963
280,sosnovo-ozerskoye,52.5249,111.5418,3.69,56,100,0.81,RU,1712883963
281,bardai,11.65,7.2333,27.09,11,100,3.92,NG,1712883964
282,sao paulo de olivenca,-3.3783,-68.8725,24.43,98,100,0.59,BR,1712883964
283,pyhajarvi,67.0701,27.2176,-4.1,96,23,1.77,FI,1712883965
284,estevan,49.1334,-102.9842,11.11,32,0,6.17,CA,1712883965
285,brainerd,46.358,-94.2008,11.16,56,7,0.89,US,1712883666
286,weno,7.4515,151.8468,29.97,84,100,4.63,FM,1712883966
287,petawawa,45.9001,-77.3328,10.99,95,100,2.24,CA,1712883966
288,umm kaddadah,13.6017,26.6876,23.68,13,6,5.84,SD,1712883966
289,greymouth,-42.4667,171.2,12.27,83,100,4.91,NZ,1712883967
290,tucupita,9.0622,-62.051,26.46,76,7,3.47,VE,1712883967
291,catacaos,-5.2667,-80.6833,27.66,55,79,5.63,PE,1712883967
292,huron,41.1501,-82.5499,16.7,96,100,2.97,US,1712883748
293,skowhegan,44.7651,-69.7192,8.1,98,100,1.61,US,1712883968
294,ribadesella,43.4614,-5.0596,12.19,86,100,2.41,ES,1712883968
295,nova sintra,14.8667,-24.7167,22.4,78,9,6.42,CV,1712883898
296,kostroma,57.7708,40.9344,7.9,70,100,3.58,RU,1712883969
297,ribeira grande,38.5167,-28.7,15.99,94,1,0.89,PT,1712883816
298,margaret river,-33.95,115.0667,17.42,63,6,5.69,AU,1712883970
299,kristiansund,63.1115,7.732,9.03,71,67,2.06,NO,1712883970
300,sisimiut,66.9395,-53.6735,-5.75,88,93,2.29,GL,1712883970
301,howard springs,-12.497,131.047,28.82,69,100,3.1,AU,1712883970
302,hadibu,12.65,54.0333,26.99,78,15,2.34,YE,1712883735
303,bodaybo,57.8506,114.1933,-0.53,87,98,1.55,RU,1712883971
304,catriel,-37.8791,-67.7956,10.92,69,100,6.29,AR,1712883971
305,yokadouma,3.5167,15.05,20.8,98,100,1.02,CM,1712883972
306,merizo village,13.2658,144.6691,31.31,83,100,6.16,GU,1712883972
307,fernie,49.5,-115.0687,15.05,80,100,1.16,CA,1712883802
308,ulladulla,-35.35,150.4667,19.87,60,1,2.68,AU,1712883973
309,sao tome,0.3365,6.7273,27.3,79,100,1.15,ST,1712883973
310,thunder bay,48.4001,-89.3168,8.99,93,100,1.54,CA,1712883974
311,nuku'alofa,-21.1333,-175.2,28.19,83,20,3.6,TO,1712883956
312,kalisz,51.7611,18.091,10.0,70,27,3.19,PL,1712883965
313,quellon,-43.1167,-73.6167,8.7,74,0,2.14,CL,1712883686
314,tauranga,-37.6861,176.1667,20.92,94,100,2.68,NZ,1712883946
315,inarajan village,13.2736,144.7484,31.54,83,100,6.32,GU,1712883887
316,najera,42.4244,-2.734,9.62,82,15,1.17,ES,1712883975
317,susuman,62.7833,148.1667,-8.34,81,77,1.79,RU,1712883976
318,xining,36.6167,101.7667,9.62,29,100,1.41,CN,1712883847
319,usinsk,65.9939,57.5281,1.71,99,100,10.28,RU,1712883976
320,kodinsk,58.6881,99.1844,-5.31,91,100,0.91,RU,1712883976
321,olyokminsk,60.3736,120.4264,-6.85,69,100,3.15,RU,1712883977
322,mar del plata,-38.0023,-57.5575,13.38,70,75,2.57,AR,1712883823
323,kiama,-34.6833,150.8667,22.43,64,0,1.92,AU,1712883977
324,waingapu,-9.6567,120.2641,27.95,70,51,4.98,ID,1712883897
325,ponta delgada,37.7333,-25.6667,18.44,94,20,0.51,PT,1712883978
326,starodub,52.5844,32.7633,8.36,69,100,3.05,RU,1712883978
327,gainesville,29.6516,-82.3248,21.64,69,75,7.2,US,1712883789
328,vilyuysk,63.7553,121.6247,-18.89,96,13,2.68,RU,1712883827
329,buka,40.8108,69.1986,16.32,67,100,3.96,UZ,1712883979
330,bayanhongor,46.7167,100.1167,0.53,53,61,2.43,MN,1712883979
331,kargopol',61.5071,38.9456,2.18,96,100,4.86,RU,1712883980
332,dunedin,-45.8742,170.5036,9.33,92,100,0.89,NZ,1712883815
333,stornoway,58.2093,-6.3865,10.98,88,75,6.17,GB,1712883980
334,ketchikan,55.3422,-131.6461,7.41,76,75,0.0,US,1712883980
335,callao,-12.0667,-77.15,25.95,78,0,4.63,PE,1712883901
336,colonia,50.9333,6.95,14.9,82,100,0.51,DE,1712883981
337,gwadar,25.1216,62.3254,25.4,87,49,2.2,PK,1712883982
338,katabu,-4.9333,122.5167,27.56,86,15,1.24,ID,1712883982
339,sarina,-21.4333,149.2167,27.01,71,100,4.42,AU,1712883982
340,chonchi,-42.6128,-73.8092,8.4,75,0,0.54,CL,1712883982
341,greenville,35.6127,-77.3663,21.02,93,100,8.23,US,1712883723
342,fort mcmurray,56.7268,-111.381,13.77,26,75,6.69,CA,1712883983
343,laguna,38.421,-121.4238,28.28,46,0,3.6,US,1712883790
344,lev tolstoy,53.2134,39.446,11.72,67,59,3.09,RU,1712883984
345,labrador city,52.9463,-66.9114,4.54,56,40,4.63,CA,1712883778
346,doka,13.5167,35.7667,27.85,14,56,5.58,SD,1712883984
347,nagqu,31.5,92.0,-1.86,49,100,3.46,CN,1712883918
348,taichung,24.1469,120.6839,29.78,82,75,2.57,TW,1712883985
349,punta gorda,26.9298,-82.0454,24.03,84,40,5.81,US,1712883733
350,praya,14.9215,-23.5087,21.3,78,20,3.09,CV,1712883986
351,newport,51.5877,-2.9984,11.76,91,100,5.43,GB,1712883807
352,novodvinsk,64.4165,40.8122,4.88,97,91,5.92,RU,1712883986
353,garoowe,8.4054,48.4845,24.25,87,98,3.32,SO,1712883987
354,labytnangi,66.6572,66.4183,-6.46,95,100,4.43,RU,1712883987
355,kingston,17.997,-76.7936,29.53,66,20,8.23,JM,1712883723
356,tegueste,28.5167,-16.3167,26.64,31,20,2.06,ES,1712883988
357,roma,43.2128,-75.4557,18.23,85,100,6.17,US,1712883821
358,pomichna,48.2422,31.4158,14.56,66,100,5.12,UA,1712883988
359,magsaysay,6.7667,125.1833,30.6,54,77,2.73,PH,1712883819
360,luganville,-15.5333,167.1667,30.15,69,23,3.15,VU,1712883989
361,port saint john's,-31.6229,29.5448,15.32,63,4,5.88,ZA,1712883921
362,qingyang,37.4958,121.2581,19.0,35,73,4.58,CN,1712883821
363,gorontalo,0.5412,123.0595,28.27,72,100,1.3,ID,1712883882
364,concepcion,-36.827,-73.0498,12.89,82,0,1.03,CL,1712883990
365,manadhoo,5.7667,73.3833,29.43,73,11,2.95,MV,1712883990
366,nabire,-3.3667,135.4833,28.61,72,98,0.38,ID,1712883990
367,puerto deseado,-47.7503,-65.8938,10.6,60,0,5.84,AR,1712883991
368,kapoeta,4.7717,33.5903,27.54,57,100,4.77,SS,1712883991
369,dzilam gonzalez,21.2833,-88.9333,22.84,66,100,3.15,MX,1712883991
370,puerto colombia,10.9878,-74.9547,28.05,83,7,9.75,CO,1712883992
371,dunay,42.8803,132.3375,5.17,90,12,4.0,RU,1712883992
372,yaren,-0.5472,166.916,28.3,79,100,3.04,NR,1712883992
373,holualoa,19.6228,-155.9522,27.15,80,100,3.6,US,1712883993
374,natal,-5.795,-35.2094,28.12,83,40,2.06,BR,1712883914
375,kavaratti,10.5669,72.642,28.94,70,18,2.58,IN,1712883993
376,fonyod,46.7555,17.5795,10.1,77,36,2.14,HU,1712883994
377,urzhar,47.093,81.6294,3.22,86,100,3.61,KZ,1712883994
378,oranjemund,-28.55,16.4333,24.17,31,5,6.6,NA,1712883994
379,gorno-altaysk,51.9561,85.955,0.29,98,100,4.47,RU,1712883994
380,selfoss,63.9331,-20.9971,2.8,93,100,2.14,IS,1712883995
381,ayaviri,-14.8864,-70.5889,8.24,79,70,0.82,PE,1712883995
382,kapuskasing,49.4169,-82.4331,13.0,47,100,3.6,CA,1712883962
383,borova,50.1763,30.1043,11.3,76,100,2.76,UA,1712883996
384,ola,59.5833,151.2833,-3.81,87,37,1.02,RU,1712883944
385,kudahuvadhoo,2.6708,72.8944,29.01,72,82,0.66,MV,1712883996
386,mehekar,20.15,76.5667,24.65,58,6,1.24,IN,1712883996
387,katsuren-haebaru,26.3369,127.8719,24.21,72,20,3.6,JP,1712883997
388,shimoda,34.6667,138.95,13.39,84,100,6.39,JP,1712883997
389,coahuayana de hidalgo,18.7,-103.6583,23.09,78,6,1.25,MX,1712883997
390,nishifukuma,33.7667,130.4667,19.62,78,100,1.16,JP,1712883881
391,kailua-kona,19.6406,-155.9956,29.22,81,100,3.6,US,1712883998
392,phra phutthabat,14.7253,100.7954,34.78,68,70,3.66,TH,1712883998
393,keyser,39.4409,-78.9739,20.75,91,100,3.76,US,1712883998
394,borujen,31.9652,51.2873,5.46,70,0,1.19,IR,1712883999
395,horta,38.5333,-28.6333,15.57,94,0,0.89,PT,1712883921
396,eyl,7.9803,49.8164,27.85,82,100,2.41,SO,1712883999
397,gallup,35.5281,-108.7426,19.91,14,0,4.12,US,1712884000
398,bikenibeu village,1.3673,173.1241,30.98,74,20,2.57,KI,1712884000
399,al bawiti,28.3492,28.8659,17.24,44,0,3.65,EG,1712884000
400,ceeldheer,3.8488,47.1806,27.54,80,53,3.69,SO,1712884000
401,sudak,44.85,34.9667,12.27,69,10,3.93,UA,1712884001
402,magalia,39.8121,-121.5783,23.75,46,0,0.89,US,1712884001
403,songea,-10.6833,35.65,18.43,99,100,0.75,TZ,1712884001
404,broome,42.2506,-75.833,16.61,93,100,8.23,US,1712883745
405,pohang,36.0322,129.365,19.08,51,50,2.45,KR,1712884002
406,tumut,-35.3,148.2167,18.72,55,0,2.64,AU,1712884002
407,balezino,57.9796,53.0106,5.44,87,0,4.49,RU,1712884003
408,nizhnesortymskiy,62.4397,71.7603,-7.51,94,100,13.67,RU,1712884003
409,tari,12.4086,4.4914,33.81,9,100,3.13,NG,1712884003
410,sur,22.5667,59.5289,29.8,49,96,1.82,OM,1712884003
411,gafour,36.3205,9.3242,8.97,93,100,1.53,TN,1712884004
412,papao,-17.75,-149.55,30.37,85,100,8.9,PF,1712884004
413,bahia honda,22.9036,-83.1592,25.98,82,96,4.14,CU,1712884004
414,kuloy,61.0305,42.4925,5.61,75,100,4.87,RU,1712884005
415,grand falls-windsor,48.9332,-55.6649,0.51,76,1,3.33,CA,1712884005
416,isangel,-19.55,169.2667,27.98,78,39,2.64,VU,1712884005
417,villa berthet,-27.2917,-60.4126,16.52,96,100,3.41,AR,1712884005
418,al jawf,29.5,38.75,17.88,37,0,2.59,SA,1712884006
419,camacupa,-12.0167,17.4833,17.43,98,100,0.8,AO,1712883941
420,prince george,53.9166,-122.753,9.69,63,100,5.14,CA,1712883983
421,burang,30.25,81.1667,-10.84,91,84,0.84,CN,1712884007
422,dickinson,29.4608,-95.0513,25.07,39,0,4.63,US,1712883927
423,san pedro pochutla,15.7333,-96.4667,28.84,74,100,2.32,MX,1712884007
424,jibou,47.2667,23.25,9.62,91,15,1.37,RO,1712884008
425,taulaga,-11.0553,-171.0883,30.01,73,66,3.33,AS,1712884008
426,cove,7.221,2.3402,27.03,79,100,4.07,BJ,1712884008
427,lang son,21.8333,106.7333,22.92,88,100,1.95,VN,1712884009
428,lianzhou,24.7811,112.3825,23.77,92,99,0.47,CN,1712884009
429,cill airne,52.05,-9.5167,11.18,99,100,2.71,IE,1712884009
430,oroqen zizhiqi,50.5667,123.7167,9.66,62,100,1.73,CN,1712884010
431,kharsia,21.9667,83.1167,22.92,56,58,0.3,IN,1712883978
432,waynesboro,38.0685,-78.8895,19.31,94,100,8.75,US,1712883895
433,ronne,55.1009,14.7066,7.95,93,100,7.2,DK,1712884011
434,beloyarskiy,63.7119,66.6722,-1.67,95,100,5.81,RU,1712884011
435,luba,3.4568,8.5547,26.65,88,100,1.15,GQ,1712884011
436,kihurio,-4.4667,38.0667,23.05,95,82,0.75,TZ,1712884011
437,ardakan,32.31,54.0175,14.15,58,15,4.03,IR,1712884012
438,zaragoza,41.6561,-0.8773,14.45,54,0,3.09,ES,1712883900
439,santa luzia,-19.7697,-43.8514,25.5,90,20,1.97,BR,1712884012
440,port blair,11.6667,92.75,30.02,84,20,1.03,IN,1712884013
441,san antonio de pale,-1.4014,5.6325,27.88,77,100,2.32,GQ,1712884013
442,salym,60.0625,71.4789,-5.15,94,100,6.99,RU,1712884013
443,nova vicosa,-17.8919,-39.3719,26.14,82,0,3.14,BR,1712883715
444,margate,51.3813,1.3862,12.15,89,100,3.13,GB,1712884014
445,hengchun,22.0042,120.7439,26.93,73,12,1.51,TW,1712884014
446,bandarbeyla,9.4942,50.8122,27.86,84,63,2.59,SO,1712884014
447,margherita,27.2833,95.6833,24.58,45,100,0.47,IN,1712884015
448,argo,37.6333,22.7333,17.38,45,71,3.92,GR,1712884015
449,porto da folha,-9.9172,-37.2783,24.6,90,10,2.46,BR,1712884015
450,port douglas,-16.4833,145.4667,26.62,61,38,3.94,AU,1712884015
451,bizerte,37.2744,9.8739,14.37,70,15,5.03,TN,1712884016
452,rio preto da eva,-2.6994,-59.6997,24.62,98,100,1.1,BR,1712884016
453,bria,6.5423,21.9863,23.85,32,46,1.92,CF,1712884016
454,hola,51.5377,23.1902,6.1,72,5,2.45,PL,1712884017
455,dongkan,33.9997,119.8308,18.22,77,94,4.02,CN,1712883972
456,lugovoye,42.9094,72.7178,10.84,77,100,3.02,KZ,1712884017
457,griffith,41.5284,-87.4237,13.39,76,100,5.14,US,1712884017
458,pangody,65.85,74.4859,-14.38,91,100,11.84,RU,1712884018
459,kariba,-16.5167,28.8,21.43,84,99,3.57,ZW,1712884018
460,la sarre,48.8002,-79.1996,7.72,89,100,2.95,CA,1712883817
461,mersa matruh,31.3525,27.2453,16.77,82,59,2.38,EG,1712884019
462,lincheng,19.9078,109.6858,27.1,71,0,2.09,CN,1712883831
463,neiafu,-18.65,-173.9833,28.38,78,40,4.63,TO,1712884019
464,basco,20.4487,121.9702,26.28,84,21,6.49,PH,1712883844
465,keene,42.9337,-72.2781,11.05,96,100,2.68,US,1712884020
466,ciudad lazaro cardenas,17.9583,-102.2,24.88,77,7,2.08,MX,1712884020
467,marsh harbour,26.5412,-77.0636,24.07,88,100,8.89,BS,1712884020
468,churachandpur,24.3333,93.6667,21.36,28,100,0.09,IN,1712884021
469,puerto armuelles,8.2833,-82.8667,30.09,71,100,1.34,PA,1712884021
470,azadshahr,34.7909,48.5707,5.51,90,100,5.83,IR,1712884021
471,koysinceq,36.0821,44.6278,12.3,67,63,3.63,IQ,1712884022
472,mejit,10.2753,170.8646,26.7,78,100,9.42,MH,1712883944
473,naze,28.3667,129.4833,20.51,86,95,4.37,JP,1712883900
474,salinopolis,-0.6136,-47.3561,27.02,89,99,3.76,BR,1712884023
475,lompoc,34.6391,-120.4579,25.08,69,0,3.09,US,1712883943
476,luanda,-8.8368,13.2343,26.0,85,20,2.06,AO,1712883835
477,lodwar,3.1191,35.5973,29.0,61,38,3.03,KE,1712884024
478,la troncal,-2.4,-79.3333,26.31,89,75,0.83,EC,1712884024
479,namibe,-15.1961,12.1522,22.49,74,7,3.03,AO,1712884024
480,riberalta,-10.9833,-66.1,23.26,99,100,3.0,BO,1712884025
481,queenstown,-31.8976,26.8753,3.85,88,0,0.64,ZA,1712884025
482,tahe,52.3333,124.7333,3.11,92,100,0.4,CN,1712883920
483,hasaki,35.7333,140.8333,17.38,84,100,4.31,JP,1712884026
484,mayya,61.7333,130.2811,-5.38,92,100,4.86,RU,1712884026
485,sabang,5.8933,95.3214,29.32,75,68,7.36,ID,1712884026
486,al harithah,30.7186,47.7208,23.08,36,0,3.84,IQ,1712884027
487,diffa,13.3154,12.6113,27.3,18,21,4.53,NE,1712884027
488,aykhal,66.0,111.5,-20.66,88,15,2.49,RU,1712883820
489,plettenberg bay,-34.0527,23.3716,12.76,72,3,2.22,ZA,1712884027
490,wotho,10.1657,166.0102,27.04,77,100,8.86,MH,1712884028
491,listowel,52.4464,-9.485,11.84,97,100,3.17,IE,1712884028
492,carnarvon,-24.8667,113.6333,23.24,52,0,6.5,AU,1712883897
493,tidjikja,18.5564,-11.4271,30.33,14,0,4.97,MR,1712884029
494,mahdia,35.5047,11.0622,15.97,65,100,5.44,TN,1712884029
495,al hufuf,25.3646,49.5653,21.19,43,0,2.57,SA,1712884029
496,selma,36.5708,-119.6121,30.01,35,0,3.6,US,1712884030
497,yamba,-5.9,22.3,22.97,93,100,0.98,CD,1712884030
498,svetlyy,54.675,20.1347,12.98,91,100,6.52,RU,1712883762
499,fuglafjordur,62.244,-6.814,8.26,86,1,10.25,FO,1712884030
500,yerofey pavlovich,53.9667,121.9667,1.72,98,100,1.64,RU,1712884031
501,larache,35.1932,-6.1557,15.46,61,9,2.64,MA,1712884031
502,santa cruz,-17.8,-63.1667,23.7,83,75,2.57,BO,1712883987
503,santana,-0.0583,-51.1817,26.1,94,100,1.54,BR,1712884032
504,najran,17.4924,44.1277,26.36,50,100,0.49,SA,1712884032
505,ruza,55.699,36.1952,7.6,72,100,3.61,RU,1712884033
506,tenkodogo,11.78,-0.3697,34.08,32,100,2.81,BF,1712884033
507,cannonvale,-20.2833,148.7,23.66,76,99,6.77,AU,1712884033
508,huarmey,-10.0681,-78.1522,23.31,80,40,3.8,PE,1712883774
509,torghay,49.6339,63.4981,2.8,63,19,2.41,KZ,1712884034
510,aroma,15.8167,36.1333,25.67,38,42,3.46,SD,1712884034
511,nouadhibou,20.931,-17.0347,18.99,94,0,5.14,MR,1712884035
512,sao miguel do araguaia,-13.275,-50.1628,23.58,92,100,2.21,BR,1712884024
513,nemuro,43.3236,145.575,5.77,92,100,6.99,JP,1712883849
514,vanimo,-2.6741,141.3028,28.39,83,76,1.28,PG,1712884036
515,adrar,20.5022,-10.0711,28.68,12,0,5.51,MR,1712884036
516,singkawang,0.9,109.0,27.27,82,77,1.4,ID,1712884036
517,shenjiamen,29.9576,122.298,14.24,98,100,3.44,CN,1712884036
518,belaya kholunitsa,58.84,50.8528,4.86,89,100,4.11,RU,1712884037
519,pochinok,54.4068,32.4407,10.41,71,100,4.11,RU,1712884037
520,kaa-khem,51.6833,94.7333,1.89,78,100,2.56,RU,1712884037
521,chisec,15.8167,-90.2833,24.76,82,93,0.13,GT,1712884038
522,bogra,24.85,89.3667,26.59,38,3,0.97,BD,1712884038
523,buon ma thuot,12.6667,108.05,26.85,62,99,2.78,VN,1712884038
524,at taj,24.2049,23.2857,19.16,25,100,4.31,LY,1712884039
525,salem,11.65,78.1667,24.41,88,86,1.84,IN,1712884002
526,namdrik,5.5994,168.1028,27.41,84,100,7.72,MH,1712884039
527,kruisfontein,-34.0033,24.7314,13.27,72,0,3.46,ZA,1712884008
528,mancio lima,-7.6142,-72.8958,24.38,95,100,0.91,BR,1712884004
529,khandyga,62.6667,135.6,-0.15,91,100,4.33,RU,1712883834
530,constitucion,-35.3333,-72.4167,11.14,87,42,1.05,CL,1712884040
531,malvan,16.0667,73.4667,26.1,62,31,4.75,IN,1712883917
532,donna,26.1703,-98.0519,28.97,24,0,4.12,US,1712884041
533,funafuti,-8.5243,179.1942,32.0,74,75,0.0,TV,1712884041
534,cadale,2.7603,46.3222,28.69,72,77,4.33,SO,1712884042
535,kavieng,-2.5744,150.7967,28.69,73,67,2.76,PG,1712884042
536,dinguiraye,11.3,-10.7167,29.25,42,96,0.99,GN,1712884042
537,dokshytsy,54.8924,27.7689,10.01,67,100,6.51,BY,1712884042
538,cidreira,-30.1811,-50.2056,20.87,78,100,7.52,BR,1712884043
539,turabah,21.2141,41.6331,23.03,50,5,2.73,SA,1712884043
540,east london,-33.0153,27.9116,15.88,65,87,6.5,ZA,1712884043
541,masaka,-0.3338,31.7341,17.67,94,99,1.14,UG,1712884043
542,san bernardo del viento,9.3533,-75.9524,28.47,81,12,4.54,CO,1712884044
543,sola,-13.8833,167.55,28.37,79,56,4.61,VU,1712884044
544,kannus,63.9,23.9,0.85,96,100,2.88,FI,1712884044
545,pont rouge,48.8833,-72.0825,5.16,94,100,6.18,CA,1712884045
546,ada,43.4166,-116.1262,22.39,31,0,4.63,US,1712884045
547,phan thiet,10.9333,108.1,29.29,59,21,4.28,VN,1712884045
548,sainte-marie,-20.8968,55.5496,26.09,91,100,4.63,RE,1712884045
549,val-d'or,48.1002,-77.7828,8.28,95,100,4.59,CA,1712884046
550,energetik,51.7445,58.7934,6.26,77,100,4.71,RU,1712884046
551,maragogi,-9.0122,-35.2225,26.64,83,5,2.57,BR,1712884046
552,tionk essil,12.7856,-16.5217,22.08,66,0,3.62,SN,1712884046
553,shilovo,54.3204,40.874,9.56,81,2,3.13,RU,1712884047
554,serenje,-13.2325,30.2352,17.33,98,100,4.35,ZM,1712884047
555,deqen,29.9618,90.7188,0.41,50,62,1.24,CN,1712884047
556,berdigestyakh,62.0989,126.6992,-11.63,87,100,5.07,RU,1712884047
557,dubbo,-32.25,148.6167,20.07,60,0,3.6,AU,1712884048
558,hilo,19.7297,-155.09,23.12,95,100,3.09,US,1712884048
559,magnitogorsk,53.4186,59.0472,9.46,66,40,6.0,RU,1712884048
560,igarka,67.4667,86.5833,-25.55,99,83,3.13,RU,1712884048
561,yemetsk,63.4721,41.7941,3.37,81,100,5.19,RU,1712884049
